folder	desc	name	Latitude	Longitude	thumbnail	url	date	n-size
Folder1	ThatWay	No, no -THAT way!	35.7646916666667	-105.833397222222	https://c2.staticflickr.com/8/7180/27922576425_dfdb6b4f13.jpg	https://www.flickr.com/photos/139088815@N08/27922576425/in/photostream/	2015:08:27 11:16:28	https://c2.staticflickr.com/8/7180/27922576425_dfdb6b4f13_n.jpg
Folder1	TesuqueCreek	The refreshing half-way point	35.7639694444444	-105.833271666667	https://c4.staticflickr.com/8/7510/27309599163_1d5be2b8e6.jpg	https://www.flickr.com/photos/139088815@N08/27309599163/in/photostream/	2015:08:27 11:25:05	https://c4.staticflickr.com/8/7510/27309599163_1d5be2b8e6_n.jpg
Folder1	SwitchbackTrail	Looking down on fellow hikers	35.7585716666667	-105.844185833333	https://c8.staticflickr.com/8/7724/27922623615_3086430d2a.jpg	https://www.flickr.com/photos/139088815@N08/27922623615/in/photostream/	2015:08:27 10:32:00	https://c8.staticflickr.com/8/7724/27922623615_3086430d2a_n.jpg
Folder1	LoneHiker	I always lead the pack!	35.75774	-105.842823611111	https://c1.staticflickr.com/8/7560/27888281576_a328fdb73d.jpg	https://www.flickr.com/photos/139088815@N08/27888281576/in/photostream/	2015:08:27 10:24:15	https://c1.staticflickr.com/8/7560/27888281576_a328fdb73d_n.jpg
Folder1	EarlyBreak	Stopping for a shady break	35.7576361111111	-105.842675	https://c6.staticflickr.com/8/7769/27309581093_d9bddd270f.jpg	https://www.flickr.com/photos/139088815@N08/27309581093/in/photostream/	2015:08:27 10:23:54	https://c6.staticflickr.com/8/7769/27309581093_d9bddd270f_n.jpg
Folder1	Down2Tesuque	A beautiful meadow awaits creekside	35.7595111111111	-105.846305555556	https://c7.staticflickr.com/8/7351/27888250766_1d084e6d77.jpg	https://www.flickr.com/photos/139088815@N08/27888250766/in/photostream/	2015:08:27 10:38:36	https://c7.staticflickr.com/8/7351/27888250766_1d084e6d77_n.jpg
