folder	desc	name	Latitude	Longitude	thumbnail	url	date	n-size	symbol	icon_size	color
Folder1	TrailheadDown	The Trail descends to Huertas Creek	35.3400305555556	-106.460594444444	https://c1.staticflickr.com/5/4183/34394302306_aabacf07a6_q.jpg	https://www.flickr.com/photos/139088815@N08/34394302306/in/album-72157681270182061	2017:05:03 10:51:09	https://c1.staticflickr.com/5/4183/34394302306_aabacf07a6_n.jpg			pink
Folder1	PeekingSandia	Good views of the Sandia dissolve behind the hills	35.337875	-106.463075	https://c1.staticflickr.com/5/4188/34051131590_4e4665cd95_q.jpg	https://www.flickr.com/photos/139088815@N08/34051131590/in/album-72157681270182061	2017:05:03 10:59:50	https://c1.staticflickr.com/5/4188/34051131590_4e4665cd95_n.jpg			pink
Folder1	RiverCutaways	Many erosion features mark the  arroyo	35.3390805555556	-106.470702777778	https://c1.staticflickr.com/3/2879/34051128390_a9fa635c12_q.jpg	https://www.flickr.com/photos/139088815@N08/34051128390/in/album-72157681270182061	2017:05:03 11:22:58	https://c1.staticflickr.com/3/2879/34051128390_a9fa635c12_n.jpg			pink
Folder1	LookingForGold	A side canyon glitters - no gold, only shells	35.3437111111111	-106.476591666667	https://c1.staticflickr.com/3/2879/34276312712_77d4226cae_q.jpg	https://www.flickr.com/photos/139088815@N08/34276312712/in/album-72157681270182061	2017:05:03 11:51:35	https://c1.staticflickr.com/3/2879/34276312712_77d4226cae_n.jpg			pink
Folder1	MesasAhead	Colorful mesas appear and accentuate the view	35.3445583333333	-106.4775	https://c1.staticflickr.com/5/4165/34051135600_dccbe84d71_q.jpg	https://www.flickr.com/photos/139088815@N08/34051135600/in/album-72157681270182061	2017:05:03 11:54:09	https://c1.staticflickr.com/5/4165/34051135600_dccbe84d71_n.jpg			pink
Folder1	ManyRoads	Many roads crisscross the route	35.34975	-106.478194444444	https://c1.staticflickr.com/5/4174/34305202271_9d3eea5aa2_q.jpg	https://www.flickr.com/photos/139088815@N08/34305202271/in/album-72157681270182061	2017:05:03 12:13:33	https://c1.staticflickr.com/5/4174/34305202271_9d3eea5aa2_n.jpg			pink
Folder1	NorthernView	Cabezon points the northern way	35.346625	-106.466361111111	https://c1.staticflickr.com/5/4160/34394319746_825156b4dd_q.jpg	https://www.flickr.com/photos/139088815@N08/34394319746/in/album-72157681270182061	2017:05:03 13:08:23	https://c1.staticflickr.com/5/4160/34394319746_825156b4dd_n.jpg			pink
