folder	desc	name	Latitude	Longitude	thumbnail	url	date	n-size	symbol	icon_size	color
Folder1	TomSetsPace	Near the trailhead, the Little Tesuque Creek	35.7261277777778	-105.888411111111	https://c1.staticflickr.com/3/2862/33641096246_b2ef08365f_q.jpg	https://www.flickr.com/photos/139088815@N08/33641096246/in/album-72157681800918756	2017:03:22 10:16:25	https://c1.staticflickr.com/3/2862/33641096246_b2ef08365f_n.jpg			pink
Folder1	FenceJuncture	A point of options after a short climb	35.7319527777778	-105.8851	https://c1.staticflickr.com/3/2908/32868430263_e0d35773ea_q.jpg	https://www.flickr.com/photos/139088815@N08/32868430263/in/album-72157681800918756	2017:03:22 10:36:01	https://c1.staticflickr.com/3/2908/32868430263_e0d35773ea_n.jpg			pink
Folder1	1ofManyLookouts	Many stops on the trail provide scenic vistas	35.7306194444444	-105.880897222222	https://c1.staticflickr.com/3/2815/33681864915_b29157b56a_q.jpg	https://www.flickr.com/photos/139088815@N08/33681864915/in/album-72157681800918756	2017:03:22 10:49:42	https://c1.staticflickr.com/3/2815/33681864915_b29157b56a_n.jpg			pink
Folder1	ManCave	Tom settles in a perfect hilltop shelter	35.7319666666667	-105.879172222222	https://c1.staticflickr.com/3/2915/33552300651_763d47dc83_q.jpg	https://www.flickr.com/photos/139088815@N08/33552300651/in/album-72157681800918756	2017:03:22 11:01:09	https://c1.staticflickr.com/3/2915/33552300651_763d47dc83_n.jpg			pink
Folder1	HazyScene	Haze in the distance, but the views are still great	35.7332	-105.8759	https://c1.staticflickr.com/4/3666/33641072926_aec220cee9_q.jpg	https://www.flickr.com/photos/139088815@N08/33641072926/in/album-72157681800918756	2017:03:22 11:18:01	https://c1.staticflickr.com/4/3666/33641072926_aec220cee9_n.jpg			pink
Folder1	RockGuards	Early on, formations accentuate the view	35.7258611111111	-105.888694444444	https://c1.staticflickr.com/4/3792/33297608210_d10d5fc975_q.jpg	https://www.flickr.com/photos/139088815@N08/33297608210/in/album-72157681800918756	2017:03:22 12:37:32	https://c1.staticflickr.com/4/3792/33297608210_d10d5fc975_n.jpg			pink
